[
	{
		"id": 1,
		"name": "Camden Town",
		"start_lat": "51.541837",
		"start_lng": "-0.139199",
		"end_lat": "51.550396",
		"end_lng": "-0.140526",
		"day": "Sunday",
		"time": "9am",
		"highlights": "Camden Lock. Camden Market. Roundhouse. Camden High Street. Electric Ballroom.",
		"img_url": "../img/route-placeholder-image.png"
	},
	{
		"id": 2,
		"name": "Regents Park",
		"start_lat": "51.523751",
		"start_lng": "-0.154577",
		"end_lat": "51.541565",
		"end_lng": "-0.161842",
		"day": "Sunday",
		"time": "10am",
		"highlights": "Rose Garden. Boating Lakes. Mosque. Devonshire Terrace. Open Air Theatre. Camden Lock. Regents Canal.",
		"img_url": "../img/route-placeholder-image.png"
	},
	{
		"id": 3,
		"name": "Soho",
		"start_lat": "51.515173",
		"start_lng": "-0.132238",
		"end_lat": "51.511625",
		"end_lng": "-0.137194",
		"day": "Saturday",
		"time": "9am",
		"highlights": "Old Compton Street. Soho Square. China Town. Golden Square. Theatre Land. Italian Soho.",
		"img_url": "../img/route-placeholder-image.png"
	},
	{
		"id": 4,
		"name": "Hampstead Heath",
		"start_lat": "51.555236",
		"start_lng": "-0.151021",
		"end_lat": "51.572062",
		"end_lng": "-0.167575",
		"day": "Sunday",
		"time": "9am",
		"highlights": "Jack Straws Castle. Kenwood. Parliament Hill. Hampstead Village. Highgate Village.",
		"img_url": "../img/route-placeholder-image.png"
	},
	{
		"id": 5,
		"name": "Greenwich",
		"start_lat": "51.483361",
		"start_lng": "-0.009504",
		"end_lat": "51.467503",
		"end_lng": "0.009048",
		"day": "Sunday",
		"time": "9am",
		"highlights": "Cutty Sark. Greenwich Time Museum. The Meridian. Blackheath. Maritime Museum. Greenwich Park.",
		"img_url": "../img/route-placeholder-image.png"
	},
	{
		"id": 6,
		"name": "Hyde Park",
		"start_lat": "51.510197",
		"start_lng": "-0.196234",
		"end_lat": "51.503453",
		"end_lng": "-0.204237",
		"day": "Saturday",
		"time": "10am",
		"highlights": "Hyde Park Corner. Serpentine. Speakers Corner. Hyde Park Gallery. Queensway. Bayswater.",
		"img_url": "../img/route-placeholder-image.png"
	},
	{
		"id": 7,
		"name": "Southbank",
		"start_lat": "51.507789",
		"start_lng": "-0.114468",
		"end_lat": "51.504348",
		"end_lng": "-0.114468",
		"day": "Sunday",
		"time": "11am",
		"highlights": "National Theatre. Potters Fields. London Bridge. Tower Bridge. The Golden Hind. HMS Belfast. Southwark Bridge.",
		"img_url": "../img/route-placeholder-image.png"
	},
	{
		"id": 8,
		"name": "City of London",
		"start_lat": "51.506997",
		"start_lng": "-0.071797",
		"end_lat": "51.521948",
		"end_lng": "-0.093819",
		"day": "Sunday",
		"time": "11am",
		"highlights": "St Pauls. Lloyds of London. The Gherkin. The Tower of London. St Olav's Church. London Wall. The Barbican.",
		"img_url": "../img/route-placeholder-image.png"
	},
	{
		"id": 9,
		"name": "Wapping",
		"start_lat": "51.506997",
		"start_lng": "-0.071797",
		"end_lat": "51.504347",
		"end_lng": "-0.056115",
		"day": "Sunday",
		"time": "11am",
		"highlights": "St Katherines Dock. Tobacco Wharf. Tower Bridge. Vintners Wharf. The Captain Kidd.",
		"img_url": "../img/route-placeholder-image.png"
	},
	{
		"id": 10,
		"name": "Bloomsbury",
		"start_lat": "51.518811",
		"start_lng": "-0.122627",
		"end_lat": "51.526648",
		"end_lng": "-0.132176",
		"day": "Sunday",
		"time": "9am",
		"highlights": "Coram Fields. Senate House. British Museum. Friends House. Russel Square. Bedford Square.",
		"img_url": "../img/route-placeholder-image.png"
	},
	{
		"id": 11,
		"name": "Notting Hill",
		"start_lat": "51.509669",
		"start_lng": "-0.189522",
		"end_lat": "51.521082",
		"end_lng": "-0.200776",
		"day": "Sunday",
		"time": "9am",
		"highlights": "Hyde Park. Portobello Road. The Churchill. Greek Orthodox Cathedral. Notting Hill Movie Locations.",
		"img_url": "../img/route-placeholder-image.png"
	},
	{
		"id": 12,
		"name": "Fitzrovia",
		"start_lat": "51.523172",
		"start_lng": "-0.14638",
		"end_lat": "51.51904",
		"end_lng": "-0.130096",
		"day": "Sunday",
		"time": "9am",
		"highlights": "Park Square. Cavendish Square. The Cartoon Museum. Charlotte Street. BT Tower.",
		"img_url": "../img/route-placeholder-image.png"
	},
	{
		"id": 14,
		"name": "Kensington and Chelsea",
		"start_lat": "51.497049",
		"start_lng": "-0.169995",
		"end_lat": "51.480747",
		"end_lng": "-0.16512",
		"day": "Sunday",
		"time": "9am",
		"highlights": "Kings Road. Sloane Square. Stamford Bridge. Army Museum. Chelsea Hospital. Chelsea Harbour.",
		"img_url": "../img/route-placeholder-image.png"
	},
	{
		"id": 15,
		"name": "Covent Garden",
		"start_lat": "51.507489",
		"start_lng": "-0.122273",
		"end_lat": "51.518811",
		"end_lng": "-0.122627",
		"day": "Saturday",
		"time": "9am",
		"highlights": "Covent Garden Piazza. The Transport Museum. The Strand. Trafalgar Square. National Gallery.",
		"img_url": "../img/route-placeholder-image.png"
	},
	{
		"id": 16,
		"name": "East End",
		"start_lat": "51.520133",
		"start_lng": "-0.076662",
		"end_lat": "51.516611",
		"end_lng": "-0.040871",
		"day": "Sunday",
		"time": "9am",
		"highlights": "Spitalfields. St Luke's Church. Brick Lane. The Truman Brewery. Whitechapel. Tayyab's.",
		"img_url": "../img/route-placeholder-image.png"
	},
	{
		"id": 17,
		"name": "Hoxton",
		"start_lat": "51.525686",
		"start_lng": "-0.087377",
		"end_lat": "51.548627",
		"end_lng": "-0.092146",
		"day": "Saturday",
		"time": "9am",
		"highlights": "Printworks. St Leonards Church. Boundary Gardens. Wesley's Chapel.",
		"img_url": "../img/route-placeholder-image.png"
	},
	{
		"id": 18,
		"name": "Clerkenwell",
		"start_lat": "51.518575",
		"start_lng": "-0.096838",
		"end_lat": "51.530006",
		"end_lng": "-0.108412",
		"day": "Sunday",
		"time": "9am",
		"highlights": "Lenin's House. Bunhill Fields. Church of St Peter. St John's Gate. Spitalfields. Barbican. Exmouth Street. Grays Inn.",
		"img_url": "../img/route-placeholder-image.png"
	},
	{
		"id": 19,
		"name": "Westminster",
		"start_lat": "51.491413",
		"start_lng": "-0.12769",
		"end_lat": "51.50677",
		"end_lng": "-0.142812",
		"day": "Sunday",
		"time": "9am",
		"highlights": "Green Park. St James Park. Buckingham Palace. The Mall. Trafalgar Square. The ICA. Carlton Terrace.",
		"img_url": "../img/route-placeholder-image.png"
	},
	{
		"id": 20,
		"name": "Belgravia",
		"start_lat": "51.504393",
		"start_lng": "-0.152834",
		"end_lat": "51.492266",
		"end_lng": "-0.156427",
		"day": "Sunday",
		"time": "10am",
		"highlights": "Sloane Square. Eaton Square. Hyde Park Corner. Belgrave Square Gardens. Embassies. Harrods.",
		"img_url": "../img/route-placeholder-image.png"
	}
]
